{
    "lat": "24.795173",
    "lng": "120.98693",
    "data": { "name": "十八尖山森林公園"
}},{
    "lat": "24.800911",
    "lng": "120.97733",
    "data": { "name": "新竹公園"
}},{
    "lat": "22.646304",
    "lng": "120.30539",
    "data": { "name": "三民公園"
}},{
    "lat": "25.006643",
    "lng": "121.45414",
    "data": { "name": "湳雅（環保）公園"
}},{
    "lat": "24.799498",
    "lng": "120.95772",
    "data": { "name": "天公壇公園"
}},{
    "lat": "22.356851",
    "lng": "114.25538",
    "data": { "name": "公六二期(台溪里)"
}},{
    "lat": "40.782864",
    "lng": "-73.96535",
    "data": { "name": "中央公園"
}},{
    "lat": "24.808258",
    "lng": "120.96395",
    "data": { "name": "長和公園"
}},{
    "lat": "24.987583",
    "lng": "121.31770",
    "data": { "name": "建國公園"
}},{
    "lat": "25.057415",
    "lng": "121.60373",
    "data": { "name": "興南公園"
}},{
    "lat": "24.799206",
    "lng": "120.99455",
    "data": { "name": "赤土崎公園"
}},{
    "lat": "24.198665",
    "lng": "120.60037",
    "data": { "name": "東大公園"
}},{
    "lat": "23.614854",
    "lng": "121.41772",
    "data": { "name": "光復公園"
}},{
    "lat": "25.041982",
    "lng": "121.53200",
    "data": { "name": "忠孝公園"
}},{
    "lat": "24.996424",
    "lng": "121.30648",
    "data": { "name": "民族公園"
}},{
    "lat": "24.797063",
    "lng": "120.97133",
    "data": { "name": "南大公園"
}},{
    "lat": "24.797534",
    "lng": "120.97212",
    "data": { "name": "頂竹圍公園"
}},{
    "lat": "24.799477",
    "lng": "120.95713",
    "data": { "name": "西雅公園"
}},{
    "lat": "23.109480",
    "lng": "120.31013",
    "data": { "name": "小西雅(頂埔公園)"
}},{
    "lat": "24.796652",
    "lng": "120.95977",
    "data": { "name": "台溪公園"
}},{
    "lat": "24.797406",
    "lng": "120.96695",
    "data": { "name": "興學公園"
}},{
    "lat": "24.171140",
    "lng": "120.69931",
    "data": { "name": "東光公園"
}},{
    "lat": "22.986609",
    "lng": "120.20356",
    "data": { "name": "南門公園"
}},{
    "lat": "24.794680",
    "lng": "120.95197",
    "data": { "name": "頂福公園"
}},{
    "lat": "24.798655",
    "lng": "120.94374",
    "data": { "name": "祥園公園"
}},{
    "lat": "23.441884",
    "lng": "120.53096",
    "data": { "name": "中埔公園"
}},{
    "lat": "24.997253",
    "lng": "121.53450",
    "data": { "name": "牛埔公園"
}},{
    "lat": "39.992617",
    "lng": "116.18679",
    "data": { "name": "香山公園"
}},{
    "lat": "24.791487",
    "lng": "120.92390",
    "data": { "name": "美森公園"
}},{
    "lat": "34.723847",
    "lng": "135.39629",
    "data": { "name": "大庄公園"
}},{
    "lat": "24.845933",
    "lng": "120.92623",
    "data": { "name": "南寮環保公園"
}},{
    "lat": "24.845933",
    "lng": "120.92623",
    "data": { "name": "漁港環保公園"
}},{
    "lat": "24.840511",
    "lng": "120.92784",
    "data": { "name": "用錫公園"
}},{
    "lat": "24.951035",
    "lng": "121.23589",
    "data": { "name": "中光公園"
}},{
    "lat": "25.053085",
    "lng": "121.52493",
    "data": { "name": "康樂公園"
}},{
    "lat": "results\" ",
    "lng": "results\" ",
    "data": { "name": "用鑑公園"
}},{
    "lat": "25.041388",
    "lng": "121.44644",
    "data": { "name": "新莊公園"
}},{
    "lat": "43.929960",
    "lng": "125.20232",
    "data": { "name": "關東公園"
}},{
    "lat": "24.774399",
    "lng": "120.96830",
    "data": { "name": "明湖公園"
}},{
    "lat": "results\" ",
    "lng": "results\" ",
    "data": { "name": "科學園路安全島"
}},{
    "lat": "results\" ",
    "lng": "results\" ",
    "data": { "name": "科園里兒童公園"
}},{
    "lat": "21.162341",
    "lng": "110.46459",
    "data": { "name": "愛民公園"
}},{
    "lat": "25.059364",
    "lng": "121.52100",
    "data": { "name": "民享公園"
}},{
    "lat": "24.782110",
    "lng": "121.00879",
    "data": { "name": "科園親子公園"
}},{
    "lat": "results\" ",
    "lng": "results\" ",
    "data": { "name": "金山東街旁公園"
}},{
    "lat": "results\" ",
    "lng": "results\" ",
    "data": { "name": "金山六街旁公園"
}},{
    "lat": "results\" ",
    "lng": "results\" ",
    "data": { "name": "金山十一街旁公園"
}},{
    "lat": "24.779217",
    "lng": "121.02257",
    "data": { "name": "金山面公園"
}},{
    "lat": "25.225325",
    "lng": "121.64574",
    "data": { "name": "金山公園"
}},{
    "lat": "results\" ",
    "lng": "results\" ",
    "data": { "name": "金山十八街安全島綠地"
}},{
    "lat": "40.667621",
    "lng": "-73.96318",
    "data": { "name": "櫻花公園"
}},{
    "lat": "results\" ",
    "lng": "results\" ",
    "data": { "name": "仙水里綠地"
}},{
    "lat": "results\" ",
    "lng": "results\" ",
    "data": { "name": "仙宮里公兒(一)"
}},{
    "lat": "results\" ",
    "lng": "results\" ",
    "data": { "name": "仙宮里公兒(二)"
}},{
    "lat": "results\" ",
    "lng": "results\" ",
    "data": { "name": "仙宮里公兒(三)"
}},{
    "lat": "results\" ",
    "lng": "results\" ",
    "data": { "name": "仙宮里綠地(一)"
}},{
    "lat": "results\" ",
    "lng": "results\" ",
    "data": { "name": "仙宮里綠地(二)"
}},{
    "lat": "22.788144",
    "lng": "120.63156",
    "data": { "name": "中埔兒三"
}},{
    "lat": "24.804772",
    "lng": "120.96598",
    "data": { "name": "城隍廟前廣場"
}},{
    "lat": "24.803435",
    "lng": "120.97998",
    "data": { "name": "埔前公園"
}},{
    "lat": "24.788054",
    "lng": "120.98247",
    "data": { "name": "高峰植物園"
}},{
    "lat": "40.752726",
    "lng": "-73.97722",
    "data": { "name": "火車站前廣場"
}},{
    "lat": "24.823594",
    "lng": "120.95440",
    "data": { "name": "吉羊公園"
}},{
    "lat": "results\" ",
    "lng": "results\" ",
    "data": { "name": "頭前溪高灘地運動休憩公園"
}},{
    "lat": "24.996375",
    "lng": "121.43853",
    "data": { "name": "湳雅河濱公園"
}},{
    "lat": "24.832619",
    "lng": "120.91509",
    "data": { "name": "海天一線"
}},{
    "lat": "24.778649",
    "lng": "120.91445",
    "data": { "name": "風情海岸"
}},{
    "lat": "24.836321",
    "lng": "120.91850",
    "data": { "name": "看海公園"
}},{
    "lat": "24.840439",
    "lng": "120.93758",
    "data": { "name": "南寮舊港"
}},{
    "lat": "25.061579",
    "lng": "121.52486",
    "data": { "name": "新興公園"
}},{
    "lat": "24.854234",
    "lng": "120.947\n ",
    "data": { "name": "紅樹林公園"
}},{
    "lat": "24.80091",
    "lng": "120.98495",
    "data": { "name": "綠水里市有公園"
}},{
    "lat": "24.795478",
    "lng": "120.97909",
    "data": { "name": "東山生態公園"
}},{
    "lat": "24.793912",
    "lng": "120.97525",
    "data": { "name": "建華、東山及綠水里汀甫圳步道"
}},{
    "lat": "25.078897",
    "lng": "121.25902",
    "data": { "name": "三民路園道"
}},{
    "lat": "24.144012",
    "lng": "120.66506",
    "data": { "name": "經國路園道"
}},{
    "lat": "results\" ",
    "lng": "results\" ",
    "data": { "name": "經國路安全島植栽"
}},{
    "lat": "results\" ",
    "lng": "results\" ",
    "data": { "name": "東大路安全島、人行道植栽"
}},{
    "lat": "results\" ",
    "lng": "results\" ",
    "data": { "name": "竹光路安全島植栽"
}},{
    "lat": "results\" ",
    "lng": "results\" ",
    "data": { "name": "建功一路旁園道五"
}},{
    "lat": "results\" ",
    "lng": "results\" ",
    "data": { "name": "建功國小前園道五"
}},{
    "lat": "24.802807",
    "lng": "120.98513",
    "data": { "name": "建功里園道五"
}},{
    "lat": "results\" ",
    "lng": "results\" ",
    "data": { "name": "建功高中前園道五"
}},{
    "lat": "results\" ",
    "lng": "results\" ",
    "data": { "name": "馬偕醫院旁園道五"
}},{
    "lat": "24.802807",
    "lng": "120.98513",
    "data": { "name": "立功里園道五"
}},{
    "lat": "24.793945",
    "lng": "121.02058",
    "data": { "name": "公道五路一段及二段安全島、人行道植栽"
}},{
    "lat": "24.672993",
    "lng": "121.81581",
    "data": { "name": "親水公園"
}},{
    "lat": "25.041825",
    "lng": "121.51498",
    "data": { "name": "二二八紀念公園"
}},{
    "lat": "35.724214",
    "lng": "139.81560",
    "data": { "name": "百花園"
}},{
    "lat": "results\" ",
    "lng": "results\" ",
    "data": { "name": "青少年館旁公園"
}},{
    "lat": "23.945393",
    "lng": "120.78862",
    "data": { "name": "南寮苗圃"
}},{
    "lat": "24.775259",
    "lng": "120.96957",
    "data": { "name": "青草湖風景區"
}},{
    "lat": "24.822819",
    "lng": "120.91033",
    "data": { "name": "港南風景區"
}},{
    "lat": "23.474718",
    "lng": "120.45097",
    "data": { "name": "文化公園"
}},{
    "lat": "24.798711",
    "lng": "120.95150",
    "data": { "name": "頂埔里和平公園"
}},{
    "lat": "results\" ",
    "lng": "results\" ",
    "data": { "name": "古賢里東大路三段機場圍牆旁綠地"
}},{
    "lat": "24.904930",
    "lng": "121.28336",
    "data": { "name": "長興公園"
}},{
    "lat": "24.737583",
    "lng": "120.89229",
    "data": { "name": "南十八尖山"
}},{
    "lat": "results\" ",
    "lng": "results\" ",
    "data": { "name": "南隘自辦農村社區公園"
}},{
    "lat": "results\" ",
    "lng": "results\" ",
    "data": { "name": "昇湖自辦農村社區公園綠地"
}},{
    "lat": "results\" ",
    "lng": "results\" ",
    "data": { "name": "南勢農村社區公園用廣場"
}},{
    "lat": "results\" ",
    "lng": "results\" ",
    "data": { "name": "港南農村社區公園用廣場綠地"
}},{
    "lat": "results\" ",
    "lng": "results\" ",
    "data": { "name": "浸水農村社區公園"
}},{
    "lat": "24.171795",
    "lng": "120.66907",
    "data": { "name": "中清公園"
}},{
    "lat": "results\" ",
    "lng": "results\" ",
    "data": { "name": "高峰里遊憩綠地"
}},{
    "lat": "24.772654",
    "lng": "120.92548",
    "data": { "name": "青青草原"
}},{
    "lat": "24.785949",
    "lng": "121.01940",
    "data": { "name": "關新公園(原日光公園)"
}},{
    "lat": "11.576280",
    "lng": "103.35872",
    "data": { "name": "公（北側帶狀公園）"
}},{
    "lat": "24.131648",
    "lng": "120.68029",
    "data": { "name": "長春公園"
}},{
    "lat": "24.791003",
    "lng": "121.01752",
    "data": { "name": "關埔公園"
}},{
    "lat": "37.521540",
    "lng": "126.98397",
    "data": { "name": "龍山公園"
}},{
    "lat": "results\" ",
    "lng": "results\" ",
    "data": { "name": "關埔綠5及6(廣場使用)"
}},{
    "lat": "results\" ",
    "lng": "results\" ",
    "data": { "name": "光復里東勢街旁公園"
}},{
    "lat": "results\" ",
    "lng": "results\" ",
    "data": { "name": "馬偕公園"
}},{
    "lat": "25.083885",
    "lng": "121.38282",
    "data": { "name": "一品公園"
}},{
    "lat": "25.040398",
    "lng": "121.56705",
    "data": { "name": "長春段廣場(楓香大道)"
}},{
    "lat": "24.803272",
    "lng": "120.95387",
    "data": { "name": "凌雲公園"
}},{
    "lat": "37.520504",
    "lng": "-78.49485",
    "data": { "name": "十五、十六村眷改公園"
}},{
    "lat": "35.520764",
    "lng": "139.63311",
    "data": { "name": "港北公園"
}},{
    "lat": "results\" ",
    "lng": "results\" ",
    "data": { "name": "香山區南隘里大院住宅社區閭鄰公園"
}},{
    "lat": "24.782334",
    "lng": "121.02426",
    "data": { "name": "關東里公兒四公園"
}},{
    "lat": "24.172009",
    "lng": "120.66976",
    "data": { "name": "長青公園"
}},{
    "lat": "results\" ",
    "lng": "results\" ",
    "data": { "name": "東明自辦市地重劃區公園綠地"
}},{
    "lat": "24.796335",
    "lng": "120.91626",
    "data": { "name": "水資源公園"
}},{
    "lat": "24.774669",
    "lng": "120.95366",
    "data": { "name": "景觀大道及景觀平台"
}},{
    "lat": "results\" ",
    "lng": "results\" ",
    "data": { "name": "光復路安全島、人行道植栽"
}},{
    "lat": "results\" ",
    "lng": "results\" ",
    "data": { "name": "中華路安全島、人行道植栽"
}},{
    "lat": "results\" ",
    "lng": "results\" ",
    "data": { "name": "和平路安全島植栽"
}},{
    "lat": "results\" ",
    "lng": "results\" ",
    "data": { "name": "天府路安全島、人行道植栽"
}},{
    "lat": "results\" ",
    "lng": "results\" ",
    "data": { "name": "海濱路安全島植栽"
}},{
    "lat": "results\" ",
    "lng": "results\" ",
    "data": { "name": "海埔路安全島植栽"
}},{
    "lat": "results\" ",
    "lng": "results\" ",
    "data": { "name": "高翠路安全島植栽"
}},{
    "lat": "results\" ",
    "lng": "results\" ",
    "data": { "name": "客雅溪防汛道路植栽"
}},{
    "lat": "results\" ",
    "lng": "results\" ",
    "data": { "name": "客雅大道安全島植栽"
}},{
    "lat": "results\" ",
    "lng": "results\" ",
    "data": { "name": "慈雲路安全島、人行道植栽"
}},{
    "lat": "results\" ",
    "lng": "results\" ",
    "data": { "name": "大學路人行道樹木"
}},{
    "lat": "results\" ",
    "lng": "results\" ",
    "data": { "name": "關新路安全島、人行道植栽"
}},{
    "lat": "results\" ",
    "lng": "results\" ",
    "data": { "name": "中正路人行道植栽"
}},{
    "lat": "results\" ",
    "lng": "results\" ",
    "data": { "name": "金山街人行道植栽"
}},{
    "lat": "24.815106",
    "lng": "120.98106",
    "data": { "name": "鐵道路一、二段人行道植栽"
}},{
    "lat": "results\" ",
    "lng": "results\" ",
    "data": { "name": "牛埔東路人行道"
}},{
    "lat": "results\" ",
    "lng": "results\" ",
    "data": { "name": "公園路人行道、安全島栽植"
}},{
    "lat": "24.791133",
    "lng": "120.93732",
    "data": { "name": "中華路台玻對面綠地"
}},{
    "lat": "results\" ",
    "lng": "results\" ",
    "data": { "name": "沿海十七公里自行車步道"
}},{
    "lat": "23.482636",
    "lng": "120.45358",
    "data": { "name": "育英公園"
}},{
    "lat": "25.094807",
    "lng": "121.52903",
    "data": { "name": "福林公園"
}},{
    "lat": "28.663427",
    "lng": "115.84277",
    "data": { "name": "南大路綠地"
}},{
    "lat": "results\" ",
    "lng": "results\" ",
    "data": { "name": "公道三竹香南路綠地興闢工程"
}},{
    "lat": "results\" ",
    "lng": "results\" ",
    "data": { "name": "關東路376巷綠帶"
}},{
    "lat": "23.318136",
    "lng": "120.26844",
    "data": { "name": "鹽水公園"
}},{
    "lat": "24.803408",
    "lng": "120.97837",
    "data": { "name": "竹蓮公園"
}},{
    "lat": "24.006173",
    "lng": "121.63888",
    "data": { "name": "台肥公園"
}},