[{"lat":24.805203,"lng":120.973262,"data":{"name":"東區區公所","peopleNumber":"105","phone":"5203606","cellphone":"0932287953","admin":"白淑櫻(課長)"}},{"lat":24.787165,"lng":121.012405,"data":{"name":"光武國中","peopleNumber":"1555","phone":"(0)577934-701","cellphone":"0952600611","admin":"嚴鴻森(事務組長 )"}},{"lat":24.805229,"lng":120.972686,"data":{"name":"東門國小","peopleNumber":"4800","phone":"03-5222109#8601","cellphone":"0926266299","admin":"蘇泓俊(事務組長)"}},{"lat":24.811841,"lng":120.980125,"data":{"name":"三民國中","peopleNumber":"2935","phone":"(0)5339825*121","cellphone":"0937142520","admin":"黃賜宏(總務主任"}},{"lat":24.781961,"lng":121.011878,"data":{"name":"科園國小","peopleNumber":"365","phone":"03-6668421-130","cellphone":"0928635681","admin":"李瑞剛(主任)"}},{"lat":24.789465,"lng":121.007214,"data":{"name":"龍山國小","peopleNumber":"2015","phone":"(0)5774287-212","cellphone":"0958298018","admin":"李瑞剛(主任)"}},{"lat":24.797399,"lng":121.002364,"data":{"name":"建功高中","peopleNumber":"2695","phone":"5745892*300","cellphone":"0916301800","admin":"施秉宏(總務主任)"}},{"lat":24.780294,"lng":121.023808,"data":{"name":"新科國中","peopleNumber":"850","phone":"(0)6686387-6123","cellphone":"0938311910","admin":"張昱騰(總務主任)"}},{"lat":24.790245,"lng":120.967557,"data":{"name":"陽光國小","peopleNumber":"1475","phone":"910770087","cellphone":"0910770087","admin":"田又方(總務主任)"}},{"lat":24.798583,"lng":120.984045,"data":{"name":"東園國小","peopleNumber":"1515","phone":"03-5712496#8604","cellphone":"0926475095","admin":"邱佩瑩(總務主任)"}},{"lat":null,"lng":120.999233,"data":{"name":"建功國小","peopleNumber":"1695","phone":"5713447#804","cellphone":"0928907156","admin":"謝玉姿(總務主任)"}},{"lat":24.794072,"lng":120.976498,"data":{"name":"建華國中","peopleNumber":"3400","phone":"(0)5238075#130","cellphone":"0936202042","admin":"陳文和(總務主任)"}},{"lat":24.794083,"lng":120.977309,"data":{"name":"培英國中","peopleNumber":"3465","phone":"(0)5721301","cellphone":"0938626612","admin":"蔡之浩(主任)"}},{"lat":24.812139,"lng":null,"data":{"name":"水源國小","peopleNumber":"1110","phone":"03-57711125#107","cellphone":"0910212644","admin":"葉仰道(總務主任)"}},{"lat":null,"lng":120.965989,"data":{"name":"新竹國小","peopleNumber":"1815","phone":"(0)5222153#261","cellphone":"0981891295","admin":"鄭秀燕(總務主任)"}},{"lat":24.768445,"lng":null,"data":{"name":"青草湖國小","peopleNumber":"937","phone":"03-5200360#2040","cellphone":"0932936873","admin":"溫明白(總務主任)"}},{"lat":24.812185,"lng":120.971485,"data":{"name":"曙光國小","peopleNumber":"485","phone":"03-5328283","cellphone":"0917165403","admin":"包文玲(學務主任)"}},{"lat":24.784136,"lng":121.022061,"data":{"name":"關東國小","peopleNumber":"1000","phone":"03-5775645","cellphone":"0922958421","admin":"李佳穎(總務主任)"}},{"lat":24.7899902,"lng":120.9656542,"data":{"name":"育賢國中","peopleNumber":"1770","phone":"03-5223075#127","cellphone":"0955815603","admin":"陳志強(主任)"}},{"lat":24.798415,"lng":120.993853,"data":{"name":"光復中學","peopleNumber":"3790","phone":"03-5753516","cellphone":"0935022897","admin":"夏偉倫(組長)"}},{"lat":24.777224,"lng":121.017377,"data":{"name":"新竹實驗中學","peopleNumber":"3375","phone":"(0)5777011#251","cellphone":"0988522305","admin":"柯同洲  (總務主任)"}},{"lat":24.804783,"lng":120.975445,"data":{"name":"新竹女中","peopleNumber":"2640","phone":"(0)35456611-302","cellphone":"0918588359","admin":"陳雪如 (庶務組長)"}},{"lat":24.809504,"lng":120.983145,"data":{"name":"新竹高工","peopleNumber":"1570","phone":"03-5437478#208","cellphone":"0986769797","admin":"蔡泳霈(幹事)"}},{"lat":24.795196,"lng":120.980524,"data":{"name":"新竹高中","peopleNumber":"3835","phone":"03-5736666#302","cellphone":"0985164113","admin":"邱秀枝(幹事)"}},{"lat":24.797184,"lng":120.986483,"data":{"name":"新竹高商","peopleNumber":"4560","phone":"(0)5722150","cellphone":"0910151655","admin":"張育甄(幹事)"}},{"lat":24.789397,"lng":null,"data":{"name":"交通大學","peopleNumber":"4610","phone":"5712121#51914","cellphone":"0918387378","admin":"任芬頤(行政專員)"}},{"lat":24.794941,"lng":120.965316,"data":{"name":"新竹教育大學","peopleNumber":"3160","phone":"(0)5213132","cellphone":"0986090986","admin":"賴玟燕(組長)"}},{"lat":24.796138,"lng":120.996425,"data":{"name":"清華大學","peopleNumber":"2870","phone":"(03)5714769","cellphone":"0919259101","admin":"鍾立身(小隊長)"}},{"lat":24.812821,"lng":120.981334,"data":{"name":"三民國小","peopleNumber":"2390","phone":"03-5326345#16","cellphone":"0921470919","admin":"鄭嘉琪(總務主任)"}},{"lat":24.811426,"lng":120.972686,"data":{"name":"曙光女中","peopleNumber":"1565","phone":"03-5325709-301","cellphone":"0935637406","admin":"徐芝玲(學務主任)"}},{"lat":24.816329,"lng":120.970238,"data":{"name":"北區區公所","peopleNumber":"215","phone":"5152525轉300","cellphone":"0939781614","admin":"王秀梅(課長)"}},{"lat":24.843296,"lng":120.927092,"data":{"name":"南華國中","peopleNumber":"2125","phone":"03-5362204#14","cellphone":"0916255961","admin":"彭夢潔(總務主任)"}},{"lat":null,"lng":120.953345,"data":{"name":"成德高中","peopleNumber":"3710","phone":"03-5258748#501","cellphone":"0910079396","admin":"黃國棟(總務主任)"}},{"lat":24.822932,"lng":120.973598,"data":{"name":"舊社國小","peopleNumber":"1040","phone":"5342023-1051","cellphone":"0931043168","admin":"陳怡臻(總務主任)"}},{"lat":null,"lng":120.962553,"data":{"name":"載熙國小","peopleNumber":"1705","phone":"5316675-152","cellphone":"0912239188","admin":"黃淑霞(事務組長)"}},{"lat":24.818088,"lng":120.973787,"data":{"name":"光華國中","peopleNumber":"2925","phone":"03-5316605#132","cellphone":"0933537871","admin":"彭秀香(事務組長)"}},{"lat":24.813708,"lng":120.965668,"data":{"name":"北門國小","peopleNumber":"1160","phone":"03-5316668-205","cellphone":"0910535370","admin":"許志銘(總務主任)"}},{"lat":24.808068,"lng":120.960546,"data":{"name":"民富國小","peopleNumber":"2250","phone":"5222102轉830","cellphone":"0912628586","admin":"李宛蓒(總務主任)"}},{"lat":24.802482,"lng":120.959823,"data":{"name":"西門國小","peopleNumber":"1830","phone":"03-5222492分機2040","cellphone":"0920377256","admin":"楊智蛟(總務主任)"}},{"lat":24.807658,"lng":120.955441,"data":{"name":"竹光國中","peopleNumber":"480","phone":"(0)5246683-631","cellphone":"0937280433","admin":"林銘傳   (總務主任)"}},{"lat":24.838716,"lng":120.939711,"data":{"name":"南寮國小","peopleNumber":"1435","phone":"5363448#838","cellphone":"0921182210","admin":"薛仁祥(總務主任)"}},{"lat":24.798893,"lng":120.960617,"data":{"name":"新竹教育大學附設實驗小學","peopleNumber":"1895","phone":"(0)5282420#301","cellphone":"0937283018","admin":"黃慧仙(總務組長)"}},{"lat":24.808864,"lng":null,"data":{"name":"磐石中學","peopleNumber":"1130","phone":"03-5223946#241","cellphone":"0928212918","admin":"徐志旭(總務主任)"}},{"lat":24.8052792,"lng":120.9395089,"data":{"name":"虎林國小","peopleNumber":"1645","phone":"(0)5381820#805","cellphone":"0935699319","admin":"何兆軒(總務主任)"}},{"lat":24.8057357,"lng":120.9417978,"data":{"name":"虎林國中","peopleNumber":"2840","phone":"03-5788309","cellphone":"0932177125","admin":"王憶貞(總務主任)"}},{"lat":24.797225,"lng":120.942735,"data":{"name":"香山國小","peopleNumber":"1580","phone":"03-5386164#2118","cellphone":"0912238713","admin":"徐資宸(事務組長)"}},{"lat":24.789452,"lng":120.927164,"data":{"name":"大庄國小","peopleNumber":"1510","phone":"5384035","cellphone":"0928577062","admin":"陳瑞騰(學務主任)"}},{"lat":24.742069,"lng":120.906422,"data":{"name":"內湖國小","peopleNumber":"685","phone":"03-5373184#130","cellphone":"0920920623","admin":"周若渟 (總務主任)"}},{"lat":24.797847,"lng":120.949872,"data":{"name":"頂埔國小","peopleNumber":"1060","phone":"03-5386204#33","cellphone":"0920038773","admin":"郭美玉(事務組長)"}},{"lat":24.755789,"lng":120.946092,"data":{"name":"茄冬國小","peopleNumber":"1060","phone":"03-5373543-12","cellphone":"0928021036","admin":"黃文玲(總務主任)"}},{"lat":24.745776,"lng":120.933273,"data":{"name":"大湖國小","peopleNumber":"205","phone":"(0)5374609-11","cellphone":"0937133468","admin":"黃建財(總務主任)"}},{"lat":24.742556,"lng":120.911251,"data":{"name":"內湖國中","peopleNumber":"1110","phone":"(03)5373484#27","cellphone":"0912233661","admin":"葉慧娟 (總務主任)"}},{"lat":24.726642,"lng":120.929633,"data":{"name":"南隘國小","peopleNumber":"465","phone":"03-5371405#13","cellphone":"0938231622","admin":"李戎峴(總務主任)"}},{"lat":24.764447,"lng":120.912856,"data":{"name":"富禮國中","peopleNumber":"1645","phone":"03-5374793＃609","cellphone":"0935132567","admin":"倪大智(總務主任)"}},{"lat":24.765535,"lng":null,"data":{"name":"朝山國小","peopleNumber":"1460","phone":"5374304#213","cellphone":"0933793548","admin":"吳似倩(總務主任)"}},{"lat":24.814329,"lng":120.922885,"data":{"name":"港南國小","peopleNumber":"1100","phone":"5382964#11","cellphone":"0920510319","admin":"周芳如(總務主任)"}},{"lat":null,"lng":120.952532,"data":{"name":"中華大學","peopleNumber":"6770","phone":"03-5186314","cellphone":"0972595619","admin":"白其剛(專員)"}},{"lat":24.777847,"lng":120.940477,"data":{"name":"元培科技大學","peopleNumber":"3495","phone":"03-6102380","cellphone":"0936087099","admin":"陳英文(組員)"}},{"lat":24.774749,"lng":120.943726,"data":{"name":"玄奘大學","peopleNumber":"8095","phone":"03-5302255#2190","cellphone":"0913701556","admin":"林俊明(組員)"}},{"lat":24.784833,"lng":120.930455,"data":{"name":"香山高中","peopleNumber":"3365","phone":"5384332#401","cellphone":"0933261943","admin":"林明正(主任)"}}]