[{
    "lng": "120.971459",
    "lat": "24.801815",
    "data": { "name": "新竹火車站(前站)"
}},{
    "lng": "120.970556",
    "lat": "24.803866",
    "data": { "name": "東門圓環"
}},{
    "lng": "120.969260",
    "lat": "24.806138",
    "data": { "name": "新竹市政府"
}},{
    "lng": "120.965760",
    "lat": "24.801670",
    "data": { "name": "明志書院立體停車場"
}},{
    "lng": "120.973662",
    "lat": "24.804317",
    "data": { "name": "辛志平校長故居"
}},{
    "lng": "120.967098",
    "lat": "24.808979",
    "data": { "name": "中正北大路口"
}},{
    "lng": "120.956616",
    "lat": "24.803791",
    "data": { "name": "延平停車場"
}},{
    "lng": "120.966675",
    "lat": "24.803382",
    "data": { "name": "建國公園"
}},{
    "lng": "120.978717",
    "lat": "24.802579",
    "data": { "name": "新竹公園(公園路)"
}},{
    "lng": "120.974258",
    "lat": "24.809326",
    "data": { "name": "遠東巨城購物中心"
}},{
    "lng": "120.979624",
    "lat": "24.811226",
    "data": { "name": "三民公園"
}},{
    "lng": "120.973191",
    "lat": "24.800896",
    "data": { "name": "新竹轉運站"
}},{
    "lng": "120.991278",
    "lat": "24.800074",
    "data": { "name": "新竹馬偕紀念醫院"
}},{
    "lng": "120.993200",
    "lat": "24.802771",
    "data": { "name": "新源建功一路口"
}},{
    "lng": "120.996686",
    "lat": "24.796842",
    "data": { "name": "清華大學(北校門)"
}},{
    "lng": "120.985033",
    "lat": "24.812458",
    "data": { "name": "綠光公園"
}},{
    "lng": "120.964533",
    "lat": "24.794294",
    "data": { "name": "新竹教育大學"
}},{
    "lng": "120.970420",
    "lat": "24.798283",
    "data": { "name": "竹蓮寺"
}},{
    "lng": "120.970561",
    "lat": "24.816444",
    "data": { "name": "北區區公所"
}},{
    "lng": "120.973992",
    "lat": "24.813884",
    "data": { "name": "經國民生路口"
}},{
    "lng": "120.967956",
    "lat": "24.820368",
    "data": { "name": "湳雅公園"
}},{
    "lng": "120.957256",
    "lat": "24.799426",
    "data": { "name": "天公壇"
}},{
    "lat": "121.018330",
    "lat": "24.784875",
    "data": { "name": "光復關新路口"
}},{
    "lat": "121.021936",
    "lat": "24.777737",
    "data": { "name": "金山街(集福宮)"
}},{
    "lng": "120.944523",
    "lat": "24.796454",
    "data": { "name": "香山國小"
}},{
    "lng": "120.983512",
    "lat": "24.809629",
    "data": { "name": "北新竹火車站(新竹高工)"
}},{
    "lat": "121.021833",
    "lat": "24.788113",
    "data": { "name": "新莊火車站"
}},{
    "lat": "121.002064",
    "lat": "24.807119",
    "data": { "name": "千甲火車站"
}},{
    "lng": "120.928560",
    "lat": "24.786994",
    "data": { "name": "三姓橋火車站"
}},{
    "lng": "120.913819",
    "lat": "24.763156",
    "data": { "name": "香山火車站"
}},{
    "lat": "121.000260",
    "lat": "24.789400",
    "data": { "name": "交通大學(大學路)"
}},{
    "lng": "120.940465",
    "lat": "24.778031",
    "data": { "name": "元培醫事科技大學"
}},{
    "lng": "120.959777",
    "lat": "24.821613",
    "data": { "name": "樹林頭公園"
}},{
    "lng": "120.99347",
    "lat": "24.79288",
    "data": { "name": "清華大學(小吃部)"
}},{
    "lng": "120.99964",
    "lat": "24.7849",
    "data": { "name": "交通大學(逐風廣場)"
}},{
    "lng": "120.9942",
    "lat": "24.79974",
    "data": { "name": "赤土崎公園"
}},{
    "lng": "120.978",
    "lat": "24.80613",
    "data": { "name": "國賓大飯店(新光三越)"
}},{
    "lat": "121.01736",
    "lat": "24.78743",
    "data": { "name": "新莊公園"
}},{
    "lng": "120.96398",
    "lat": "24.81713",
    "data": { "name": "東大武陵路口(國軍新竹醫院)"
}},{
    "lng": "120.95243",
    "lat": "24.79912",
    "data": { "name": "新竹和平公園"
}},{
    "lng": "120.97008",
    "lat": "24.77386",
    "data": { "name": "青草湖(煙波大飯店)"
}},{
    "lng": "120.987619",
    "lat": "24.797087",
    "data": { "name": "十八尖山(新竹高商)"
}},{
    "lng": "120.944251",
    "lat": "24.805122",
    "data": { "name": "虎林棒球場"
}},{
    "lng": "120.960621",
    "lat": "24.807606",
    "data": { "name": "新竹棒球場"
}},{
    "lat": "121.00607",
    "lat": "24.78142",
    "data": { "name": "竹科管理局"
}},{
    "lat": "121.0054",
    "lat": "24.78004",
    "data": { "name": "科技生活館"
}},{
    "lat": "121.01078",
    "lat": "24.77874",
    "data": { "name": "靜心湖"
}},{
    "lat": "121.01466",
    "lat": "24.77739",
    "data": { "name": "金山寺"
}},{
    "lat": "121.01881",
    "lat": "24.77279",
    "data": { "name": "矽導研發中心停車場"
}},{
    "lat": "121.02517",
    "lat": "24.77092",
    "data": { "name": "篤行會館"
}},{
    "lat": "121.01019",
    "lat": "24.77282",
    "data": { "name": "園二園三廣場"
}},{
    "lng": "120.99843",
    "lat": "24.77884",
    "data": { "name": "研發四路公園"
}}]
